{
"type": "FeatureCollection",
"name": "Distilleries",
"features": [
{ "type": "Feature", "properties": { "Latitude": 10.561388888888889, "Longitude": 77.335833333333326, "Plant name": "AMARAVATHI", "Mill Address": "The Amaravathi Coop. Sugar Mills Ltd., Krishnapuram, Udumalapet, Tiruppur", "Type": "Sugar Industry", "Status": "Closed", "KLPD": "30", "Feedstock": "Molasses" }, "geometry": { "type": "Point", "coordinates": [ 77.3358333, 10.5613889 ] } },
{ "type": "Feature", "properties": { "Latitude": 10.995833333333334, "Longitude": 76.981388888888887, "Plant name": "BANNARI AMMAN", "Mill Address": "M/S Bannari Amman Sugars Ltd, Dist.- Coimbatore, Tamilnadu", "Type": "Sugar Industry", "Status": "Working", "KLPD": "64", "Feedstock": "Molasses" }, "geometry": { "type": "Point", "coordinates": [ 76.9813889, 10.9958333 ] } },
{ "type": "Feature", "properties": { "Latitude": 9.2708333333333339, "Longitude": 77.406111111111116, "Plant name": "DHARANI", "Mill Address": "Dharani Sugars & Chemicals Ltd., Dharaninagar, Athuvezhi, Sivagiri, Tirunelveli", "Type": "Sugar Industry", "Status": "Working", "KLPD": "30", "Feedstock": "Molasses" }, "geometry": { "type": "Point", "coordinates": [ 77.4061111, 9.2708333 ] } },
{ "type": "Feature", "properties": { "Latitude": 11.889444444444445, "Longitude": 78.914722222222224, "Plant name": "KALAYANALLUR", "Mill Address": "Dharani Sugars & Chemicals Ltd., Kalayanallur, Sankarapuram, Villupuram", "Type": "Sugar Industry", "Status": "Working", "KLPD": "100", "Feedstock": "Molasses" }, "geometry": { "type": "Point", "coordinates": [ 78.9147222, 11.8894444 ] } },
{ "type": "Feature", "properties": { "Latitude": 10.899722222222222, "Longitude": 78.852777777777774, "Plant name": "LALGUDI", "Mill Address": "Kothari Sugars & Chemicals Ltd., Kattur RS, Lalgudi, Tiruchirapalli", "Type": "Sugar Industry", "Status": "Working", "KLPD": "30", "Feedstock": "Molasses" }, "geometry": { "type": "Point", "coordinates": [ 78.8527778, 10.8997222 ] } },
{ "type": "Feature", "properties": { "Latitude": 8.788333333333334, "Longitude": 77.884722222222223, "Plant name": "N.A.", "Mill Address": "Binny Limited (BNREL)", "Type": "Stand alone distillery", "Status": "Working", "KLPD": "100", "Feedstock": "Grain" }, "geometry": { "type": "Point", "coordinates": [ 77.8847222, 8.7883333 ] } },
{ "type": "Feature", "properties": { "Latitude": 11.379722222222222, "Longitude": 77.894722222222228, "Plant name": "N.A.", "Mill Address": "Herbal Green Solutions Private Limited", "Type": "Stand alone distillery", "Status": "Upcoming", "KLPD": "60", "Feedstock": "Grain" }, "geometry": { "type": "Point", "coordinates": [ 77.8947222, 11.3797222 ] } },
{ "type": "Feature", "properties": { "Latitude": 10.628333333333334, "Longitude": 78.57138888888889, "Plant name": "N.A.", "Mill Address": "Piccadily Agro Industries Ltd, Tamilnadu", "Type": "Stand alone distillery", "Status": "Upcoming", "KLPD": "100", "Feedstock": "Dual feed (Molasses/Grain)" }, "geometry": { "type": "Point", "coordinates": [ 78.5713889, 10.6283333 ] } },
{ "type": "Feature", "properties": { "Latitude": 12.25, "Longitude": 79.62555555555555, "Plant name": "N.A.", "Mill Address": "Tatsavi And Manikanta Ventures Private Limited", "Type": "Stand alone distillery", "Status": "Working", "KLPD": "75", "Feedstock": "Grain" }, "geometry": { "type": "Point", "coordinates": [ 79.6255556, 12.25 ] } },
{ "type": "Feature", "properties": { "Latitude": 13.363333333333333, "Longitude": 79.9925, "Plant name": "N.A.", "Mill Address": "Slb Ethanol Private Limited", "Type": "Stand alone distillery", "Status": "Upcoming", "KLPD": "200", "Feedstock": "Grain" }, "geometry": { "type": "Point", "coordinates": [ 79.9925, 13.3633333 ] } },
{ "type": "Feature", "properties": { "Latitude": 9.7311111111111117, "Longitude": 78.161944444444444, "Plant name": "N.A.", "Mill Address": "Stellar Distilleries Private Limited", "Type": "Stand alone distillery", "Status": "Working", "KLPD": "100", "Feedstock": "Grain" }, "geometry": { "type": "Point", "coordinates": [ 78.1619444, 9.7311111 ] } },
{ "type": "Feature", "properties": { "Latitude": 8.8266666666666662, "Longitude": 77.7525, "Plant name": "N.A.", "Mill Address": "Nanda Devi Bio Energy LLP", "Type": "Stand alone distillery", "Status": "Upcoming", "KLPD": "160", "Feedstock": "Grain" }, "geometry": { "type": "Point", "coordinates": [ 77.7525, 8.8266667 ] } },
{ "type": "Feature", "properties": { "Latitude": 11.589444444444444, "Longitude": 77.659722222222229, "Plant name": "N.A.", "Mill Address": "Spac Starch Products (India) Private Limited", "Type": "Stand alone distillery", "Status": "Working", "KLPD": "160", "Feedstock": "Grain" }, "geometry": { "type": "Point", "coordinates": [ 77.6597222, 11.5894444 ] } },
{ "type": "Feature", "properties": { "Latitude": 10.653888888888888, "Longitude": 78.945555555555558, "Plant name": "N.A.", "Mill Address": "Big Starfuels LLP", "Type": "Stand alone distillery", "Status": "Upcoming", "KLPD": "300", "Feedstock": "Grain" }, "geometry": { "type": "Point", "coordinates": [ 78.9455556, 10.6538889 ] } },
{ "type": "Feature", "properties": { "Latitude": 11.77138888888889, "Longitude": 79.666944444444439, "Plant name": "NELLIKUPPAM", "Mill Address": "EID Parry (India) Ltd., Nellikuppam, Panruti, Cuddalore", "Type": "Sugar Industry", "Status": "Working", "KLPD": "75", "Feedstock": "Molasses" }, "geometry": { "type": "Point", "coordinates": [ 79.6669444, 11.7713889 ] } },
{ "type": "Feature", "properties": { "Latitude": 11.342222222222222, "Longitude": 77.757777777777775, "Plant name": "PONNI", "Mill Address": "M/S Ponni Sugars(Erode) Limited, Erode, Tamilnadu", "Type": "Sugar Industry", "Status": "Working", "KLPD": "45", "Feedstock": "Molasses" }, "geometry": { "type": "Point", "coordinates": [ 77.7577778, 11.3422222 ] } },
{ "type": "Feature", "properties": { "Latitude": 11.074722222222222, "Longitude": 78.0225, "Plant name": "PUGULUR", "Mill Address": "E.I.D. Parry (India) Ltd - Pugular (Conversion To Dual)", "Type": "Stand alone distillery", "Status": "Working", "KLPD": "120", "Feedstock": "Dual feed (Molasses/Grain)" }, "geometry": { "type": "Point", "coordinates": [ 78.0225, 11.0747222 ] } },
{ "type": "Feature", "properties": { "Latitude": 10.053055555555556, "Longitude": 77.601666666666674, "Plant name": "RAJSHREE", "Mill Address": "Rajshree Sugars & Chemicals Ltd., Varadaraj Nagar, Periyakulam,", "Type": "Sugar Industry", "Status": "Working", "KLPD": "45", "Feedstock": "Molasses" }, "geometry": { "type": "Point", "coordinates": [ 77.6016667, 10.0530556 ] } },
{ "type": "Feature", "properties": { "Latitude": 11.476944444444445, "Longitude": 77.572222222222223, "Plant name": "SAKTHI", "Mill Address": "Sakthi Sugar Ltd., Sakthinagar, Bhavani, Erode", "Type": "Sugar Industry", "Status": "Working", "KLPD": "120", "Feedstock": "Molasses" }, "geometry": { "type": "Point", "coordinates": [ 77.5722222, 11.4769444 ] } },
{ "type": "Feature", "properties": { "Latitude": 11.073333333333334, "Longitude": 78.126944444444447, "Plant name": "SALEM", "Mill Address": "The Salem Coop. Sugar Mills Ltd., Pettaipalayam, Mohanur,", "Type": "Sugar Industry", "Status": "Working", "KLPD": "30", "Feedstock": "Molasses" }, "geometry": { "type": "Point", "coordinates": [ 78.1269444, 11.0733333 ] } },
{ "type": "Feature", "properties": { "Latitude": 12.2475, "Longitude": 79.288611111111109, "Plant name": "SEMMEDU", "Mill Address": "Rajshree Sugars & Chemicals Ltd., Semmedu, Gingee, Villupuram", "Type": "Sugar Industry", "Status": "Working", "KLPD": "80", "Feedstock": "Molasses" }, "geometry": { "type": "Point", "coordinates": [ 79.2886111, 12.2475 ] } },
{ "type": "Feature", "properties": { "Latitude": 9.8022222222222215, "Longitude": 78.5275, "Plant name": "SIVAGANGA", "Mill Address": "EID Parry (India) Ltd., Udaikulam, Koothandan, Sivagangai", "Type": "Sugar Industry", "Status": "Working", "KLPD": "65", "Feedstock": "Molasses" }, "geometry": { "type": "Point", "coordinates": [ 78.5275, 9.8022222 ] } },
{ "type": "Feature", "properties": { "Latitude": 10.959722222222222, "Longitude": 79.296666666666667, "Plant name": "THIRUMANDAKUDI", "Mill Address": "Thiru Arooran Sugars Ltd., Tirumandankudi, Pullaboothanqudi, Papanasam, Thanjavur", "Type": "Sugar Industry", "Status": "Closed", "KLPD": "60", "Feedstock": "Molasses" }, "geometry": { "type": "Point", "coordinates": [ 79.2966667, 10.9597222 ] } },
{ "type": "Feature", "properties": { "Latitude": 11.415555555555555, "Longitude": 78.756388888888893, "Plant name": "UDUMBIYAN", "Mill Address": "Dhanalakshmi Srinivasan Sugars Pvt. Ltd., Udumbiyam, Veppanthattai, Perambalur", "Type": "Sugar Industry", "Status": "Working", "KLPD": "60", "Feedstock": "Molasses" }, "geometry": { "type": "Point", "coordinates": [ 78.7563889, 11.4155556 ] } }
]
}
